[
  {
    "stringId": "brekaMain",
    "name": "Breka Bakery & Café (Main St)",
    "street": "4554 Main St",
    "city": "Vancouver",
    "province": "BC",
    "postalCode": "V5V 3R5",
    "phoneNumber": "604-559-0900",
    "website": "https://breka.ca",
    "busyness": "MEDIUM",
    "noisiness": "LOW",
    "price": "MEDIUM",
    "profilePhotoURL": "https://spirecoffee.s3.us-west-2.amazonaws.com/cafeProfilePhoto/breka.png",
    "latitude": 49.24395183887686,
    "longitude": -123.10106046244594
  },
  {
    "stringId": "brekaFraser",
    "name": "Breka Bakery & Café (Fraser)",
    "street": "6533 Fraser St",
    "city": "Vancouver",
    "province": "BC",
    "postalCode": "V5X 3T4",
    "phoneNumber": "604-559-0900",
    "website": "https://breka.ca",
    "busyness": "MEDIUM",
    "noisiness": "LOW",
    "price": "MEDIUM",
    "profilePhotoURL": "https://spirecoffee.s3.us-west-2.amazonaws.com/cafeProfilePhoto/breka.png",
    "latitude": 49.22531283615734,
    "longitude": -123.09110830477461
  },
  {
    "stringId": "nemesisGNW",
    "name": "Nemesis Coffee (GNW)",
    "street": "555 Great Northern Way",
    "city": "Vancouver",
    "province": "BC",
    "postalCode": "V5T 1E1",
    "website": "https://www.nemesis.coffee/",
    "busyness": "HIGH",
    "noisiness": "MEDIUM",
    "price": "MEDIUM",
    "profilePhotoURL": "https://spirecoffee.s3.us-west-2.amazonaws.com/cafeProfilePhoto/nemisis.png",
    "latitude": 49.267168988981176,
    "longitude": -123.09263211826324
  },
  {
    "stringId": "nemesisPolygon",
    "name": "Nemesis Coffee (Polygon)",
    "street": "101 Carrie Cates Ct #110",
    "city": "North Vancouver",
    "province": "BC",
    "postalCode": "V7M 3J4",
    "website": "https://www.nemesis.coffee/",
    "busyness": "HIGH",
    "noisiness": "HIGH",
    "price": "MEDIUM",
    "profilePhotoURL": "https://spirecoffee.s3.us-west-2.amazonaws.com/cafeProfilePhoto/nemisis.png",
    "latitude": 49.31067849315337,
    "longitude": -123.08084128757065
  },
  {
    "stringId": "groundsForCoffee",
    "name": "Grounds for Coffee (Commercial)",
    "street": "2088 Commercial Dr",
    "city": "Vancouver",
    "province": "BC",
    "postalCode": "V5N 4B2",
    "phoneNumber": "604-254-3939",
    "website": "https://groundsforcoffee.ca/",
    "busyness": "MEDIUM",
    "noisiness": "MEDIUM",
    "price": "HIGH",
    "profilePhotoURL": "https://spirecoffee.s3.us-west-2.amazonaws.com/cafeProfilePhoto/groundsForCoffee.png",
    "latitude": 49.266369106980484,
    "longitude": -123.0694613740821
  },
  {
    "stringId": "flavorBalance",
    "name": "Flavor Balance Espresso Bar",
    "street": "619 Belmont St",
    "city": "New Westminster",
    "province": "BC",
    "postalCode": "V3M 5Z8",
    "phoneNumber": "778-397-2229",
    "busyness": "LOW",
    "noisiness": "LOW",
    "price": "LOW",
    "profilePhotoURL": "https://spirecoffee.s3.us-west-2.amazonaws.com/cafeProfilePhoto/flavorbalance.jpg",
    "latitude": 49.21223000687766,
    "longitude": -122.92051811641288
  },
  {
    "stringId": "fiorDeLatte",
    "name": "Fior De Latte Cafe, Bakery & Gelato",
    "street": "4233 Hastings St",
    "city": "Burnaby",
    "province": "BC",
    "postalCode": "V5C 2J5",
    "phoneNumber": "604-298-5955",
    "website": "https://fdlcafe.ca/",
    "busyness": "MEDIUM",
    "noisiness": "LOW",
    "price": "LOW",
    "profilePhotoURL": "https://spirecoffee.s3.us-west-2.amazonaws.com/cafeProfilePhoto/fdlcafe.png",
    "latitude": 49.281329346514276,
    "longitude": -123.0102098182624
  },
  {
    "stringId": "cMarketPoco",
    "name": "C Market Coffee (Port Coq)",
    "street": "820 Village Dr #110 V3B 0G9",
    "city": " Port Coquitlam",
    "province": "BC",
    "postalCode": "V3B 0G9",
    "phoneNumber": "604-949-0305",
    "website": "http://www.cmarket.ca/",
    "busyness": "HIGH",
    "noisiness": "HIGH",
    "price": "LOW",
    "profilePhotoURL": "https://spirecoffee.s3.us-west-2.amazonaws.com/cafeProfilePhoto/cMarket.png",
    "latitude": 49.25191163941184,
    "longitude": -122.73605968942795
  }
]
